{
    "restaurants": [
        {
            "id": 0,
            "name": "茶马古道",
            "description": "",
            "type": "家常菜",
            "foods": [
                "青稞酒",
                "牛羊肉",
                "干锅鲜椒虾",
                "干锅鲜椒兔",
                "藏家拌牛肉",
                "丝瓜"
            ],
            "popularity": 693,
            "rating": 3.9,
            "lon": 116.393819,
            "lat": 39.91444
        },
        {
            "id": 1,
            "name": "龙湖鸭肠王火锅",
            "description": "",
            "type": "火锅",
            "foods": [
                "老肉片",
                "小汤圆",
                "老豆腐",
                "耗儿鱼",
                "香菜丸子",
                "牛肉片",
                "海带",
                "香菜牛肉丸"
            ],
            "popularity": 941,
            "rating": 1.6,
            "lon": 116.394111,
            "lat": 39.914426
        },
        {
            "id": 2,
            "name": "拉登大排档",
            "description": "",
            "type": "烧烤",
            "foods": [
                "五花肉",
                "秋刀鱼",
                "墨鱼仔",
                "培根卷金针菇",
                "醪糟汤圆",
                "黑胡椒牛肉",
                "三咸肉"
            ],
            "popularity": 351,
            "rating": 2.7,
            "lon": 116.392857,
            "lat": 39.916139
        },
        {
            "id": 3,
            "name": "聚同缘酒楼",
            "description": "",
            "type": "家常菜",
            "foods": [
                "烧椒鱼",
                "姜爆鸭",
                "红烧肥肠"
            ],
            "popularity": 872,
            "rating": 3.1,
            "lon": 116.390791,
            "lat": 39.918236
        },
        {
            "id": 4,
            "name": "骑龙火锅",
            "description": "",
            "type": "火锅",
            "foods": [
                "酥肉",
                "无骨鸡爪爪",
                "毛肝",
                "腰片",
                "羊肉片",
                "撒尿牛丸",
                "汤圆",
                "鲜鸭肠"
            ],
            "popularity": 648,
            "rating": 2.6,
            "lon": 116.394115,
            "lat": 39.916543
        },
        {
            "id": 5,
            "name": "正宗凯里酸汤豆米火锅",
            "description": "",
            "type": "火锅",
            "foods": [
                "牛肉卷",
                "豆米火锅",
                "油面筋",
                "酸汤",
                "酸汤豆米",
                "辣锅底",
                "鸭肠",
                "豆米"
            ],
            "popularity": 346,
            "rating": 3.6,
            "lon": 116.394467,
            "lat": 39.917186
        },
        {
            "id": 6,
            "name": "天缘山珍",
            "description": "",
            "type": "汤/粥/炖菜",
            "foods": [
                "大骨汤",
                "山珍土鸡汤锅",
                "鲍鱼菇",
                "火爆脆肠",
                "鸡蛋面"
            ],
            "popularity": 9,
            "rating": 4.8,
            "lon": 116.38741,
            "lat": 39.917155
        },
        {
            "id": 7,
            "name": "巫山特色纸上烤鱼",
            "description": "",
            "type": "烧烤",
            "foods": [
                "荤菜"
            ],
            "popularity": 469,
            "rating": 2.5,
            "lon": 116.387205,
            "lat": 39.914745
        },
        {
            "id": 8,
            "name": "两岸咖啡",
            "description": "",
            "type": "外国菜",
            "foods": [
                "柠檬柚子茶",
                "卡布基诺",
                "卡布奇诺",
                "意大利面"
            ],
            "popularity": 476,
            "rating": 3.1,
            "lon": 116.392473,
            "lat": 39.91457
        },
        {
            "id": 9,
            "name": "铁锅门养身香辣馆",
            "description": "",
            "type": "小吃快餐",
            "foods": [
                "小汤圆",
                "鸡翅",
                "凉菜",
                "青椒皮蛋",
                "红油猪耳",
                "兔子",
                "脆皮香蕉",
                "现炸酥肉"
            ],
            "popularity": 266,
            "rating": 1.1,
            "lon": 116.388801,
            "lat": 39.916376
        },
        {
            "id": 10,
            "name": "老万州烤鱼",
            "description": "",
            "type": "烧烤",
            "foods": [
                "烤草鱼",
                "煮花生",
                "排骨",
                "番茄鸡蛋汤"
            ],
            "popularity": 693,
            "rating": 4.6,
            "lon": 116.389449,
            "lat": 39.918176
        },
        {
            "id": 11,
            "name": "自贡芭夯兔",
            "description": "",
            "type": "家常菜",
            "foods": [
                "芭夯兔",
                "兔子肉",
                "锅底料",
                "藕片"
            ],
            "popularity": 913,
            "rating": 4.0,
            "lon": 116.391883,
            "lat": 39.916731
        },
        {
            "id": 12,
            "name": "九锅一堂",
            "description": "",
            "type": "家常菜",
            "foods": [
                "石锅番茄牛肉",
                "石锅鲫鱼",
                "盐帮鱿鱼须",
                "石锅土豆片",
                "石锅鸡",
                "石锅豆腐",
                "石锅美蛙",
                "石锅小火锅"
            ],
            "popularity": 88,
            "rating": 1.4,
            "lon": 116.393587,
            "lat": 39.917335
        },
        {
            "id": 13,
            "name": "一品香食坊",
            "description": "",
            "type": "烧烤",
            "foods": [
                "仔姜肉丝",
                "干锅排骨",
                "干锅虾",
                "干锅肥肠"
            ],
            "popularity": 644,
            "rating": 1.4,
            "lon": 116.38809,
            "lat": 39.914735
        },
        {
            "id": 14,
            "name": "品渔堂精品私房菜",
            "description": "",
            "type": "小吃快餐",
            "foods": [
                "羊杂米粉",
                "清汤羊肉",
                "羊肉汤",
                "肠旺面"
            ],
            "popularity": 224,
            "rating": 1.9,
            "lon": 116.38719,
            "lat": 39.916048
        },
        {
            "id": 15,
            "name": "牛乐锅自助美食城",
            "description": "",
            "type": "小吃快餐",
            "foods": [
                "炒饭",
                "时令水果",
                "螺丝"
            ],
            "popularity": 506,
            "rating": 3.9,
            "lon": 116.390285,
            "lat": 39.918397
        },
        {
            "id": 16,
            "name": "聚富老火锅",
            "description": "",
            "type": "火锅",
            "foods": [
                "金针菇",
                "老肉片",
                "凤爪",
                "卤菜",
                "龙虾丸",
                "奶茶"
            ],
            "popularity": 689,
            "rating": 1.6,
            "lon": 116.390984,
            "lat": 39.917415
        },
        {
            "id": 17,
            "name": "张记饼屋",
            "description": "",
            "type": "甜品",
            "foods": [
                "海岩奶茶",
                "多芒小丸子",
                "小汤圆",
                "芒果布丁",
                "提拉米苏咖啡",
                "橘子蛋糕",
                "丝袜奶茶",
                "普通奶茶"
            ],
            "popularity": 753,
            "rating": 2.8,
            "lon": 116.394449,
            "lat": 39.918194
        },
        {
            "id": 18,
            "name": "阿杜走江湖大排档",
            "description": "",
            "type": "小吃快餐",
            "foods": [
                "香辣龙虾",
                "香辣田螺",
                "秘制牙签肉"
            ],
            "popularity": 158,
            "rating": 1.2,
            "lon": 116.388816,
            "lat": 39.912661
        },
        {
            "id": 19,
            "name": "诚信铁板烧",
            "description": "",
            "type": "烧烤",
            "foods": [
                "鸡肉",
                "广味香肠",
                "土豆"
            ],
            "popularity": 54,
            "rating": 4.5,
            "lon": 116.393654,
            "lat": 39.915069
        },
        {
            "id": 20,
            "name": "特色干锅香辣虾",
            "description": "",
            "type": "烧烤",
            "foods": [
                "香辣虾",
                "番茄蛋汤",
                "虾子",
                "干锅",
                "排骨香辣虾",
                "凉粉"
            ],
            "popularity": 784,
            "rating": 2.3,
            "lon": 116.387534,
            "lat": 39.916753
        },
        {
            "id": 21,
            "name": "周三渔行",
            "description": "",
            "type": "海鲜",
            "foods": [
                "海鲜炒饭",
                "凉拌鲫鱼",
                "大杂烩",
                "干锅虾",
                "香辣鱿鱼须"
            ],
            "popularity": 405,
            "rating": 1.8,
            "lon": 116.394668,
            "lat": 39.918603
        },
        {
            "id": 22,
            "name": "欣缘家常菜",
            "description": "",
            "type": "家常菜",
            "foods": [
                "青椒肉丝",
                "红烧茄子",
                "毛血旺",
                "荤豆花",
                "青椒土豆丝"
            ],
            "popularity": 123,
            "rating": 4.6,
            "lon": 116.394401,
            "lat": 39.914221
        },
        {
            "id": 23,
            "name": "圣口香西式牛肉",
            "description": "",
            "type": "汤/粥/炖菜",
            "foods": [
                "牛肉",
                "牛背",
                "牛筋",
                "牛肚"
            ],
            "popularity": 641,
            "rating": 2.5,
            "lon": 116.389046,
            "lat": 39.919237
        },
        {
            "id": 24,
            "name": "鲜鹅庄",
            "description": "",
            "type": "火锅",
            "foods": [
                "鹅肉小香包",
                "鲜虾",
                "原生态野菌锅（中锅）",
                "芽菜烧白",
                "野生菌汤",
                "秘制酸萝卜锅（中锅）",
                "滋补药膳养生锅（中锅）",
                "老鸭汤"
            ],
            "popularity": 856,
            "rating": 3.5,
            "lon": 116.388225,
            "lat": 39.918439
        },
        {
            "id": 25,
            "name": "桂林爱味鲜香辣海鲜锅",
            "description": "",
            "type": "海鲜",
            "foods": [
                "海鲜鸡",
                "海鲜火锅",
                "海鲜炒饭",
                "凉拌鲫鱼",
                "大杂烩",
                "干锅虾",
                "香辣鱿鱼须"
            ],
            "popularity": 65,
            "rating": 4.7,
            "lon": 116.388124,
            "lat": 39.912653
        },
        {
            "id": 26,
            "name": "夜豆花大排档",
            "description": "",
            "type": "小吃快餐",
            "foods": [
                "香辣龙虾",
                "香辣田螺",
                "秘制牙签肉"
            ],
            "popularity": 180,
            "rating": 2.1,
            "lon": 116.388817,
            "lat": 39.914607
        },
        {
            "id": 27,
            "name": "味全烤鱼",
            "description": "",
            "type": "烧烤",
            "foods": [
                "香辣鸡翅（大份）",
                "麻辣鲜虾（大份）"
            ],
            "popularity": 867,
            "rating": 1.1,
            "lon": 116.387145,
            "lat": 39.918238
        },
        {
            "id": 28,
            "name": "肖记砂锅鲶鱼",
            "description": "",
            "type": "汤/粥/炖菜",
            "foods": [
                "虾蟹粥",
                "鲜虾粥",
                "海鲜粥",
                "干贝瘦肉粥"
            ],
            "popularity": 798,
            "rating": 2.1,
            "lon": 116.388792,
            "lat": 39.918992
        },
        {
            "id": 29,
            "name": "千吉回转寿司",
            "description": "",
            "type": "外国菜",
            "foods": [
                "抹茶大福",
                "炸鱿鱼圈",
                "盐烤大虾",
                "白灼虾",
                "生蚝扇贝",
                "生鱼片",
                "寿司饭团",
                "咖喱鸡饭"
            ],
            "popularity": 689,
            "rating": 2.8,
            "lon": 116.393292,
            "lat": 39.915676
        }
    ]
}