{
    "restaurants": [
        {
            "id": 0,
            "name": "椒麻鸡火锅",
            "description": "",
            "type": "火锅",
            "foods": [
                "椒麻鸡汤",
                "粉丝",
                "土豆粉",
                "鸡皮",
                "豇豆",
                "泡椒",
                "鸡肉",
                "鸡爪"
            ],
            "popularity": 829,
            "rating": 4.5,
            "lon": 116.303501,
            "lat": 39.995077
        },
        {
            "id": 1,
            "name": "江原道纸上烧烤馆（永川店）",
            "description": "",
            "type": "烧烤",
            "foods": [
                "五花肉",
                "秋刀鱼",
                "很划算",
                "墨鱼仔",
                "培根卷金针菇",
                "醪糟汤圆",
                "黑胡椒牛肉",
                "三咸肉"
            ],
            "popularity": 240,
            "rating": 1.2,
            "lon": 116.304046,
            "lat": 39.992272
        },
        {
            "id": 2,
            "name": "甜猫甜品",
            "description": "",
            "type": "甜品",
            "foods": [
                "海岩奶茶",
                "多芒小丸子",
                "小汤圆",
                "芒果布丁",
                "提拉米苏咖啡",
                "橘子蛋糕",
                "丝袜奶茶",
                "普通奶茶"
            ],
            "popularity": 165,
            "rating": 1.8,
            "lon": 116.299844,
            "lat": 39.988678
        },
        {
            "id": 3,
            "name": "众记桑拿虾",
            "description": "",
            "type": "海鲜",
            "foods": [
                "桑拿虾"
            ],
            "popularity": 960,
            "rating": 5.0,
            "lon": 116.300503,
            "lat": 39.993137
        },
        {
            "id": 4,
            "name": "泰轩",
            "description": "",
            "type": "外国菜",
            "foods": [
                "泰南金香鸡",
                "冬荫功虾汤",
                "冬阴功汤",
                "辣椒膏炒青口",
                "红咖喱鱼片",
                "咖喱皇炒虾"
            ],
            "popularity": 749,
            "rating": 2.9,
            "lon": 116.301254,
            "lat": 39.986192
        },
        {
            "id": 5,
            "name": "纸上烤鱼",
            "description": "",
            "type": "烧烤",
            "foods": [
                "烤鱼",
                "烤鱼残渣",
                "鱿鱼",
                "火腿肠",
                "藕片",
                "纸上烤鱼",
                "洋芋",
                "泡椒"
            ],
            "popularity": 833,
            "rating": 3.0,
            "lon": 116.305676,
            "lat": 39.994242
        },
        {
            "id": 6,
            "name": "霸王牛肉",
            "description": "",
            "type": "汤/粥/炖菜",
            "foods": [
                "牛肉",
                "炒牛肝",
                "豌豆尖",
                "牛肝",
                "蚂蚁上树",
                "狮子头",
                "江小白"
            ],
            "popularity": 826,
            "rating": 2.9,
            "lon": 116.303614,
            "lat": 39.988654
        },
        {
            "id": 7,
            "name": "和旺排档",
            "description": "",
            "type": "家常菜",
            "foods": [
                "虾",
                "麻辣锅",
                "鸡蛋羹",
                "铁板鱿鱼须"
            ],
            "popularity": 671,
            "rating": 4.2,
            "lon": 116.301815,
            "lat": 39.985866
        },
        {
            "id": 8,
            "name": "湾仔海鲜主题餐厅",
            "description": "",
            "type": "家常菜",
            "foods": [
                "爬爬虾",
                "清汤锅底",
                "蒜蓉粉丝蒸扇贝",
                "生蚝",
                "虾",
                "麻辣锅",
                "鸡蛋羹",
                "铁板鱿鱼须"
            ],
            "popularity": 574,
            "rating": 3.7,
            "lon": 116.304141,
            "lat": 39.989367
        },
        {
            "id": 9,
            "name": "金福山烤肉（永川店）",
            "description": "",
            "type": "烧烤",
            "foods": [
                "生蚝",
                "培根",
                "肥牛",
                "黑椒牛肉",
                "乌鸡片",
                "烤脑花",
                "鱿鱼須",
                "水果"
            ],
            "popularity": 460,
            "rating": 1.6,
            "lon": 116.304776,
            "lat": 39.99519
        },
        {
            "id": 10,
            "name": "桂林爱味鲜香辣海鲜锅",
            "description": "",
            "type": "海鲜",
            "foods": [
                "海鲜鸡",
                "海鲜火锅",
                "海鲜炒饭",
                "凉拌鲫鱼",
                "大杂烩",
                "干锅虾",
                "香辣鱿鱼须"
            ],
            "popularity": 78,
            "rating": 4.2,
            "lon": 116.307217,
            "lat": 39.986412
        },
        {
            "id": 11,
            "name": "潮汕海鲜粥",
            "description": "",
            "type": "汤/粥/炖菜",
            "foods": [
                "虾蟹粥",
                "鲜虾粥",
                "海鲜粥",
                "干贝瘦肉粥"
            ],
            "popularity": 869,
            "rating": 4.4,
            "lon": 116.305872,
            "lat": 39.993276
        },
        {
            "id": 12,
            "name": "刘记巫山纸包鱼（永川名豪店）",
            "description": "",
            "type": "家常菜",
            "foods": [
                "韭菜 土豆",
                "泡椒鱼",
                "纸上烤鱼",
                "酸萝卜",
                "蒜蓉",
                "泡椒"
            ],
            "popularity": 760,
            "rating": 2.4,
            "lon": 116.304461,
            "lat": 39.995865
        },
        {
            "id": 13,
            "name": "永远爱时尚自助烤肉店",
            "description": "",
            "type": "烧烤",
            "foods": [
                "大虾",
                "黑森林蛋糕",
                "虾子",
                "烤茄子",
                "冰淇淋",
                "奶黄包披萨",
                "椰汁",
                "午餐自助"
            ],
            "popularity": 4,
            "rating": 2.9,
            "lon": 116.303896,
            "lat": 39.995042
        },
        {
            "id": 14,
            "name": "一品香干锅烤鱼扎啤城",
            "description": "",
            "type": "烧烤",
            "foods": [
                "土豆",
                "烤茄子",
                "冰淇淋",
                "奶黄包披萨"
            ],
            "popularity": 990,
            "rating": 4.7,
            "lon": 116.302991,
            "lat": 39.994642
        },
        {
            "id": 15,
            "name": "千吉回转寿司（人人乐店）",
            "description": "",
            "type": "外国菜",
            "foods": [
                "抹茶大福",
                "炸鱿鱼圈",
                "盐烤大虾",
                "白灼虾",
                "生蚝扇贝",
                "生鱼片",
                "寿司饭团",
                "咖喱鸡饭"
            ],
            "popularity": 917,
            "rating": 4.5,
            "lon": 116.303603,
            "lat": 39.994947
        },
        {
            "id": 16,
            "name": "馍馍哥",
            "description": "",
            "type": "家常菜",
            "foods": [
                "红豆包",
                "红枣豆浆",
                "糯米糕",
                "玉米粉",
                "大馒头",
                "豆沙馅",
                "老面馒头",
                "玉米粗粮馒头"
            ],
            "popularity": 965,
            "rating": 4.0,
            "lon": 116.308915,
            "lat": 39.990448
        },
        {
            "id": 17,
            "name": "香即福渔府",
            "description": "",
            "type": "火锅",
            "foods": [
                "美蛙",
                "现炸平菇",
                "小汤圆",
                "延边牛肉",
                "炸平菇",
                "花鲢",
                "卤猪耳",
                "南瓜饭银耳汤"
            ],
            "popularity": 525,
            "rating": 4.0,
            "lon": 116.300801,
            "lat": 39.988875
        },
        {
            "id": 18,
            "name": "巧兔",
            "description": "",
            "type": "小吃快餐",
            "foods": [
                "羊杂米粉",
                "清汤羊肉",
                "羊肉汤",
                "肠旺面"
            ],
            "popularity": 366,
            "rating": 1.8,
            "lon": 116.307096,
            "lat": 39.991158
        },
        {
            "id": 19,
            "name": "陈记遵义老牌羊肉粉",
            "description": "",
            "type": "小吃快餐",
            "foods": [
                "羊肉粉",
                "羊肉米粉",
                "羊杂米粉",
                "清汤羊肉",
                "羊肉汤",
                "肠旺面"
            ],
            "popularity": 76,
            "rating": 2.2,
            "lon": 116.304592,
            "lat": 39.992056
        },
        {
            "id": 20,
            "name": "老字号铁板烤鱼",
            "description": "",
            "type": "烧烤",
            "foods": [
                "卤肉",
                "藕片",
                "铁板鱼",
                "大红袍",
                "鱼片",
                "烤肉饭",
                "鱼肉",
                "土豆"
            ],
            "popularity": 848,
            "rating": 3.2,
            "lon": 116.299501,
            "lat": 39.989646
        },
        {
            "id": 21,
            "name": "亲古烤肉自助美食城（永川店）",
            "description": "",
            "type": "烧烤",
            "foods": [
                "三线肉",
                "蛋挞",
                "里脊肉",
                "培根金针菇卷",
                "亲古烤肉",
                "乌鸡汤",
                "牛羊肉",
                "冰激凌"
            ],
            "popularity": 413,
            "rating": 4.7,
            "lon": 116.305318,
            "lat": 39.99485
        },
        {
            "id": 22,
            "name": "潮香园正宗潮州砂锅粥",
            "description": "",
            "type": "家常菜",
            "foods": [
                "花甲王",
                "咸蛋卷",
                "炒米粉",
                "牛肉丸",
                "盐焗鸡爪",
                "芋头卷",
                "蒜香骨",
                "蒸水蛋"
            ],
            "popularity": 327,
            "rating": 1.9,
            "lon": 116.300982,
            "lat": 39.989404
        },
        {
            "id": 23,
            "name": "匆匆那年",
            "description": "",
            "type": "外国菜",
            "foods": [
                "特色披萨",
                "纯手工酸奶",
                "烤吐司",
                "自制酸奶",
                "排骨肉",
                "华夫饼",
                "吐司披萨"
            ],
            "popularity": 828,
            "rating": 1.3,
            "lon": 116.306501,
            "lat": 39.993611
        },
        {
            "id": 24,
            "name": "三缺一主题干锅汤锅馆",
            "description": "",
            "type": "汤/粥/炖菜",
            "foods": [
                "鸽子排骨锅",
                "1",
                "鸭脚",
                "香辣鱿鱼",
                "香辣虾干锅",
                "鸡汤",
                "黄瓜",
                "凉拌黄瓜"
            ],
            "popularity": 90,
            "rating": 1.3,
            "lon": 116.307074,
            "lat": 39.985346
        },
        {
            "id": 25,
            "name": "如景怡园（红河二店）",
            "description": "",
            "type": "甜品",
            "foods": [
                "虎皮蛋糕",
                "慕斯蛋糕",
                "花生碎",
                "麻饼",
                "猕猴桃",
                "圣女果"
            ],
            "popularity": 494,
            "rating": 3.9,
            "lon": 116.303566,
            "lat": 39.991484
        },
        {
            "id": 26,
            "name": "重庆有缘泡椒火锅米线",
            "description": "",
            "type": "小吃快餐",
            "foods": [
                "热橙汁",
                "火锅米线",
                "柠檬水"
            ],
            "popularity": 51,
            "rating": 3.5,
            "lon": 116.306722,
            "lat": 39.989806
        },
        {
            "id": 27,
            "name": "红河烤鱼",
            "description": "",
            "type": "烧烤",
            "foods": [
                "烤鱼",
                "草鱼",
                "烤草鱼",
                "煮花生",
                "海带",
                "木耳",
                "米饭",
                "土豆藕片"
            ],
            "popularity": 723,
            "rating": 3.4,
            "lon": 116.306354,
            "lat": 39.989352
        },
        {
            "id": 28,
            "name": "致青春回转火锅",
            "description": "",
            "type": "火锅",
            "foods": [
                "老火锅",
                "脑花",
                "毛肚",
                "老肉片",
                "凤爪",
                "卤菜",
                "龙虾丸",
                "奶茶"
            ],
            "popularity": 371,
            "rating": 3.0,
            "lon": 116.304393,
            "lat": 39.986781
        },
        {
            "id": 29,
            "name": "翅功夫疯狂烤翅",
            "description": "",
            "type": "烧烤",
            "foods": [
                "鸡翅",
                "酸辣粉",
                "黄焖鸡",
                "黑椒牛肉披萨",
                "双皮奶",
                "终极辣烤翅",
                "蜜辣烤翅",
                "烤鸡翅"
            ],
            "popularity": 495,
            "rating": 3.6,
            "lon": 116.301132,
            "lat": 39.994454
        }
    ]
}