{
    "restaurants": [
        {
            "id": 0,
            "name": "丽江吧",
            "description": "",
            "type": "甜品",
            "foods": [
                "鲜榨西瓜汁",
                "鲜榨橙汁",
                "鸡尾酒"
            ],
            "popularity": 537,
            "rating": 3.9,
            "lon": 116.323778,
            "lat": 39.995595
        },
        {
            "id": 1,
            "name": "沸元牛肉",
            "description": "",
            "type": "家常菜",
            "foods": [
                "牛肉",
                "小汤圆",
                "花鲢",
                "梅子酒",
                "梅林午餐肉",
                "小锅",
                "拉面",
                "冬瓜"
            ],
            "popularity": 477,
            "rating": 3.2,
            "lon": 116.327345,
            "lat": 40.008996
        },
        {
            "id": 2,
            "name": "伊怡蛋糕（迎宾蛋糕）",
            "description": "",
            "type": "甜品",
            "foods": [
                ""
            ],
            "popularity": 261,
            "rating": 1.3,
            "lon": 116.321621,
            "lat": 39.992554
        },
        {
            "id": 3,
            "name": "两岸咖啡",
            "description": "",
            "type": "外国菜",
            "foods": [
                "柠檬柚子茶",
                "卡布基诺",
                "卡布奇诺",
                "意大利面"
            ],
            "popularity": 648,
            "rating": 1.8,
            "lon": 116.327498,
            "lat": 40.009517
        },
        {
            "id": 4,
            "name": "周三渔行",
            "description": "",
            "type": "海鲜",
            "foods": [
                "海鲜炒饭",
                "凉拌鲫鱼",
                "大杂烩",
                "干锅虾",
                "香辣鱿鱼须"
            ],
            "popularity": 250,
            "rating": 2.6,
            "lon": 116.326697,
            "lat": 40.005104
        },
        {
            "id": 5,
            "name": "龙水金沙羊肉米线",
            "description": "",
            "type": "家常菜",
            "foods": [
                "羊杂米线/面"
            ],
            "popularity": 833,
            "rating": 4.2,
            "lon": 116.326066,
            "lat": 40.001723
        },
        {
            "id": 6,
            "name": "曹氏鸭脖",
            "description": "",
            "type": "小吃快餐",
            "foods": [
                "素菜",
                "香辣鸭脖"
            ],
            "popularity": 266,
            "rating": 3.0,
            "lon": 116.319419,
            "lat": 39.993247
        },
        {
            "id": 7,
            "name": "花之轩店",
            "description": "",
            "type": "甜品",
            "foods": [
                "芒果布丁",
                "提拉米苏咖啡",
                "橘子蛋糕",
                "丝袜奶茶",
                "普通奶茶"
            ],
            "popularity": 142,
            "rating": 4.3,
            "lon": 116.328513,
            "lat": 39.996187
        },
        {
            "id": 8,
            "name": "成都冒菜馆",
            "description": "",
            "type": "火锅",
            "foods": [
                "鸡皮",
                "豇豆",
                "泡椒",
                "鸡肉",
                "鸡爪"
            ],
            "popularity": 825,
            "rating": 1.6,
            "lon": 116.32,
            "lat": 40.005393
        },
        {
            "id": 9,
            "name": "千本樱",
            "description": "",
            "type": "外国菜",
            "foods": [
                "樱花之恋寿司",
                "招牌海苔寿司",
                "芝麻火腿寿司"
            ],
            "popularity": 94,
            "rating": 1.2,
            "lon": 116.317252,
            "lat": 40.007819
        },
        {
            "id": 10,
            "name": "四海烧烤",
            "description": "",
            "type": "烧烤",
            "foods": [
                "墨鱼仔",
                "培根卷金针菇",
                "醪糟汤圆",
                "黑胡椒牛肉",
                "三咸肉"
            ],
            "popularity": 521,
            "rating": 2.0,
            "lon": 116.321316,
            "lat": 40.002667
        },
        {
            "id": 11,
            "name": "吉外婆私房麻辣烫",
            "description": "",
            "type": "火锅",
            "foods": [
                "荤菜",
                "精品冒菜",
                "豌豆尖",
                "炸里脊",
                "土豆粉"
            ],
            "popularity": 670,
            "rating": 2.5,
            "lon": 116.322388,
            "lat": 40.01088
        },
        {
            "id": 12,
            "name": "亚姐蛋糕",
            "description": "",
            "type": "甜品",
            "foods": [
                "虎皮蛋糕",
                "慕斯蛋糕",
                "花生碎",
                "麻饼"
            ],
            "popularity": 810,
            "rating": 2.6,
            "lon": 116.316033,
            "lat": 40.006036
        },
        {
            "id": 13,
            "name": "Summer time盛夏光年",
            "description": "",
            "type": "外国菜",
            "foods": [
                "花果茶",
                "鸡尾酒",
                "情人梅",
                "柠檬红茶",
                "百果茶",
                "鱿鱼丝"
            ],
            "popularity": 899,
            "rating": 1.4,
            "lon": 116.32654,
            "lat": 40.010417
        },
        {
            "id": 14,
            "name": "大家品精品老火锅",
            "description": "",
            "type": "火锅",
            "foods": [
                "鲜郡花",
                "纯鲜毛肚",
                "生抠鸭肠",
                "鲜牛黄喉",
                "山椒肥牛",
                "千层肚"
            ],
            "popularity": 153,
            "rating": 3.0,
            "lon": 116.326335,
            "lat": 40.004543
        },
        {
            "id": 15,
            "name": "北部湾小海鲜",
            "description": "",
            "type": "海鲜",
            "foods": [
                "香辣老虎蟹",
                "清蒸鲟鱼",
                "海鲜粥"
            ],
            "popularity": 758,
            "rating": 3.3,
            "lon": 116.326061,
            "lat": 39.993039
        },
        {
            "id": 16,
            "name": "炸鸡情侣",
            "description": "",
            "type": "外国菜",
            "foods": [
                "炸鸡柳",
                "韩国泡菜",
                "泡萝卜",
                "原味炸鸡",
                "香辣鸡翅",
                "大酱汤饭",
                "炸鸡块",
                "年糕火锅"
            ],
            "popularity": 234,
            "rating": 3.5,
            "lon": 116.327056,
            "lat": 40.006427
        },
        {
            "id": 17,
            "name": "麒麟兔",
            "description": "",
            "type": "汤/粥/炖菜",
            "foods": [
                "兔腿",
                "现炸酥肉",
                "绿茶饼",
                "过水鱼",
                "野生菌汤锅",
                "麒麟兔汤",
                "麻辣兔头",
                "兔子肉"
            ],
            "popularity": 70,
            "rating": 2.7,
            "lon": 116.327648,
            "lat": 39.992109
        },
        {
            "id": 18,
            "name": "王氏源汁羊肉羊杂米粉",
            "description": "",
            "type": "汤/粥/炖菜",
            "foods": [
                "羊杂米粉",
                "鲜虾粥",
                "海鲜粥",
                "干贝瘦肉粥"
            ],
            "popularity": 264,
            "rating": 1.2,
            "lon": 116.319435,
            "lat": 40.001931
        },
        {
            "id": 19,
            "name": "面面粥道",
            "description": "",
            "type": "汤/粥/炖菜",
            "foods": [
                "土凉粉",
                "黑米粥",
                "凉面"
            ],
            "popularity": 597,
            "rating": 4.7,
            "lon": 116.325455,
            "lat": 39.999628
        },
        {
            "id": 20,
            "name": "特色铁板蒜香鱼",
            "description": "",
            "type": "烧烤",
            "foods": [
                "粉丝",
                "米饭",
                "咸菜",
                "泡椒",
                "豆花",
                "鱿鱼须",
                "午餐肉"
            ],
            "popularity": 364,
            "rating": 2.6,
            "lon": 116.32486,
            "lat": 40.010908
        },
        {
            "id": 21,
            "name": "world天地",
            "description": "",
            "type": "外国菜",
            "foods": [
                "水果披萨",
                "海鲜焗饭",
                "一口肠",
                "千丝万缕虾",
                "蛋挞",
                "牛排披萨",
                "西冷牛排"
            ],
            "popularity": 444,
            "rating": 3.5,
            "lon": 116.325084,
            "lat": 39.997275
        },
        {
            "id": 22,
            "name": "方圆蛋糕",
            "description": "",
            "type": "甜品",
            "foods": [
                "欧式水果巧克力蛋糕",
                "圆蛋糕欧式水果巧克力蛋糕"
            ],
            "popularity": 20,
            "rating": 4.8,
            "lon": 116.327208,
            "lat": 39.993523
        },
        {
            "id": 23,
            "name": "隆昌羊博士",
            "description": "",
            "type": "汤/粥/炖菜",
            "foods": [
                "羊肉汤",
                "羊肉",
                "金针菇"
            ],
            "popularity": 411,
            "rating": 4.1,
            "lon": 116.32127,
            "lat": 39.998602
        },
        {
            "id": 24,
            "name": "妈妈乡冒菜",
            "description": "",
            "type": "火锅",
            "foods": [
                "冒菜",
                "鸡肉",
                "米饭"
            ],
            "popularity": 303,
            "rating": 4.2,
            "lon": 116.322043,
            "lat": 39.993143
        },
        {
            "id": 25,
            "name": "韩国布莱恩炸鸡啤酒",
            "description": "",
            "type": "外国菜",
            "foods": [
                "石锅饭",
                "部队锅",
                "鸡肉年糕火锅",
                "部队芝士年糕火锅",
                "紫菜包饭",
                "火龙果",
                "部队汤",
                "炸鸡翅"
            ],
            "popularity": 11,
            "rating": 4.2,
            "lon": 116.317549,
            "lat": 40.005922
        },
        {
            "id": 26,
            "name": "川江凉鲫鱼",
            "description": "",
            "type": "烧烤",
            "foods": [
                "川江凉鲫鱼",
                "酒鬼鸭舌",
                "湘菜田螺"
            ],
            "popularity": 951,
            "rating": 4.3,
            "lon": 116.314537,
            "lat": 39.992867
        },
        {
            "id": 27,
            "name": "香鸭居",
            "description": "",
            "type": "烧烤",
            "foods": [
                "香辣鸭",
                "藕片"
            ],
            "popularity": 440,
            "rating": 3.1,
            "lon": 116.324344,
            "lat": 39.996723
        },
        {
            "id": 28,
            "name": "沁园饼屋（中医院店）",
            "description": "",
            "type": "甜点",
            "foods": [
                "奶酪面包",
                "慕斯蛋糕",
                "香葱曲奇",
                "小桃酥",
                "曲奇饼干",
                "沁园香粽"
            ],
            "popularity": 451,
            "rating": 1.4,
            "lon": 116.315348,
            "lat": 40.00813
        },
        {
            "id": 29,
            "name": "天和缘超市餐厅",
            "description": "",
            "type": "小吃快餐",
            "foods": [
                "虾子",
                "生鱼片",
                "鱼生",
                "芝士蛋糕",
                "蒜蓉虾",
                "冻虾",
                "粉丝扇贝",
                "烤虾"
            ],
            "popularity": 911,
            "rating": 3.1,
            "lon": 116.319306,
            "lat": 39.998595
        }
    ]
}